{
  "version": 0.6,
  "generator": "Overpass API 0.7.62.7 375dc00a",
  "osm3s": {
    "timestamp_osm_base": "2026-07-09T19:18:13Z",
    "copyright": "The data included in this document is from www.openstreetmap.org. The data is made available under ODbL."
  },
  "elements": [

{
  "type": "node",
  "id": 278990654,
  "lat": 44.6458363,
  "lon": 5.0621174,
  "tags": {
    "check_date": "2025-11-24",
    "contact:phone": "+33481662796",
    "name": "Tour de Mains",
    "opening_hours": "Mo,Th-Sa 07:00-13:00; Su 07:00-12:30",
    "shop": "bakery",
    "wheelchair": "yes"
  }
},
{
  "type": "node",
  "id": 302255133,
  "lat": 45.0363951,
  "lon": 5.0818692,
  "tags": {
    "name": "Lili Croustille",
    "opening_hours": "Mo-Su 06:00-20:00",
    "shop": "bakery"
  }
},
{
  "type": "node",
  "id": 313860262,
  "lat": 45.0026289,
  "lon": 4.8722905,
  "tags": {
    "addr:city": "Pont-de-l'Isère",
    "addr:housenumber": "6",
    "addr:postcode": "26600",
    "addr:street": "Avenue du 45 Ème Parallèle",
    "breakfast": "yes",
    "contact:phone": "+33 4 75 59 14 53",
    "craft": "baker",
    "cuisine": "sandwich",
    "delivery": "no",
    "description": "Artisan Boulanger Pâtissier",
    "indoor_seating": "yes",
    "name": "Addiction",
    "opening_hours": "Mo-Sa 06:15-19:00; Su 06:15-17:00",
    "pastry": "yes",
    "payment:cheque": "yes",
    "payment:contactless": "yes",
    "payment:debit_cards": "yes",
    "shop": "bakery",
    "takeaway": "yes",
    "toilets:wheelchair": "yes",
    "website": "https://boulangerie-addiction.eatbu.com/",
    "wheelchair": "limited"
  }
},
{
  "type": "node",
  "id": 666818255,
  "lat": 45.0474189,
  "lon": 5.0504304,
  "tags": {
    "shop": "bakery"
  }
},
{
  "type": "node",
  "id": 672113536,
  "lat": 44.9285970,
  "lon": 4.8931914,
  "tags": {
    "check_date:opening_hours": "2022-04-23",
    "contact:phone": "+33 4 75 41 50 82",
    "cuisine": "sandwich",
    "indoor_seating": "yes",
    "level": "0",
    "name": "Autant de Pains",
    "opening_hours": "Mo-Fr 06:30-19:30; Sa 07:00-19:30; Su 07:30-13:30",
    "outdoor_seating": "no",
    "ref:FR:SIRET": "43218665800022",
    "shop": "bakery"
  }
},
{
  "type": "node",
  "id": 693139020,
  "lat": 45.0385862,
  "lon": 5.0472736,
  "tags": {
    "email": "client@maison-pascalis.com",
    "name": "Boulangerie Pascalis",
    "opening_hours": "Tu-Th 07:00-13:00, 14:30-19:00; Fr, Sa 07:00-19:00; Su 07:30-12:45",
    "shop": "bakery",
    "website": "http://www.pascalis.com/"
  }
},
{
  "type": "node",
  "id": 826791979,
  "lat": 44.9419262,
  "lon": 4.8611613,
  "tags": {
    "name": "La baguetterie",
    "shop": "bakery",
    "source": "cadastre-dgi-fr source : Direction Générale des Impôts - Cadastre. Mise à jour : 2010"
  }
},
{
  "type": "node",
  "id": 907892547,
  "lat": 45.0397787,
  "lon": 5.0479143,
  "tags": {
    "name": "Boulangerie Levy",
    "shop": "bakery"
  }
},
{
  "type": "node",
  "id": 908336648,
  "lat": 45.0408908,
  "lon": 5.0491695,
  "tags": {
    "name": "Le p'tit patissou",
    "shop": "bakery",
    "wheelchair": "yes"
  }
},
{
  "type": "node",
  "id": 1332169353,
  "lat": 44.9001661,
  "lon": 5.0182421,
  "tags": {
    "amenity": "cooking_school",
    "indoor_seating": "no",
    "name": "AURA - boulangerie Ecole",
    "outdoor_seating": "no",
    "shop": "bakery",
    "takeaway": "only"
  }
},
{
  "type": "node",
  "id": 1369398910,
  "lat": 44.9566642,
  "lon": 5.1386832,
  "tags": {
    "name": "Boulangerie Dandre",
    "opening_hours": "Tu-Sa 06:30-13:00,16:00-19:00; Su 06:30-13:00",
    "shop": "bakery"
  }
},
{
  "type": "node",
  "id": 1371292900,
  "lat": 45.0278571,
  "lon": 5.3266044,
  "tags": {
    "name": "Bonnardel",
    "opening_hours": "We-Mo 07:00-13:00",
    "shop": "bakery"
  }
},
{
  "type": "node",
  "id": 1843562390,
  "lat": 44.9306755,
  "lon": 4.9141881,
  "tags": {
    "name": "La Paline",
    "opening_hours": "Mo-We,Fr,Sa 06:30-13:00,15:00-19:00; Su 15:00-19:00; Th off",
    "shop": "bakery"
  }
},
{
  "type": "node",
  "id": 1872009822,
  "lat": 44.9281918,
  "lon": 4.9077059,
  "tags": {
    "name": "Croque mie",
    "shop": "bakery"
  }
},
{
  "type": "node",
  "id": 2018203919,
  "lat": 44.7250018,
  "lon": 5.0212924,
  "tags": {
    "name": "Angelique & Pascal",
    "opening_hours": "Mo-Sa 06:30-19:00; Su 06:30-13:00",
    "ref:FR:SIRET": "80095492700011",
    "shop": "bakery"
  }
},
{
  "type": "node",
  "id": 2158800945,
  "lat": 44.7525033,
  "lon": 5.3715343,
  "tags": {
    "addr:postcode": "26150",
    "amenity": "cafe",
    "cuisine": "breakfast;cake;sandwich",
    "name": "Fournil de Sylvain",
    "opening_hours": "Mo-Fr 06:45-19:00; Sa 06:45-17:30",
    "outdoor_seating": "yes",
    "shop": "bakery",
    "wheelchair": "no"
  }
},
{
  "type": "node",
  "id": 2158800946,
  "lat": 44.7526778,
  "lon": 5.3708968,
  "tags": {
    "addr:city": "Die",
    "addr:housenumber": "5",
    "addr:postcode": "26150",
    "addr:street": "Place de la République",
    "name": "La pâtisserie bleue",
    "opening_hours": "Tu-Sa 07:30-15:00,16:00-19:00; Su 08:30-14:00",
    "payment:cash": "yes",
    "payment:credit_cards": "yes",
    "payment:debit_cards": "yes",
    "shop": "bakery",
    "website": "https://thefrenchartdevivre.com/",
    "wheelchair": "no"
  }
},
{
  "type": "node",
  "id": 2257914790,
  "lat": 44.7530853,
  "lon": 5.3699852,
  "tags": {
    "name": "La Gourmandine",
    "opening_hours": "Tu-Sa 08:00-18:00; Su 08:00-12:00",
    "shop": "bakery"
  }
},
{
  "type": "node",
  "id": 2294649066,
  "lat": 45.0408443,
  "lon": 5.0527759,
  "tags": {
    "shop": "bakery"
  }
},
{
  "type": "node",
  "id": 2347468044,
  "lat": 44.9198536,
  "lon": 4.8991834,
  "tags": {
    "check_date": "2023-04-19",
    "name": "Valence Croustillant",
    "shop": "bakery"
  }
},
{
  "type": "node",
  "id": 2347573118,
  "lat": 44.9189859,
  "lon": 4.8995966,
  "tags": {
    "name": "Le Fournil de Châteauvert",
    "opening_hours": "Mo,We-Sa 06:00-19:00; Su 06:00-13:00",
    "shop": "bakery"
  }
},
{
  "type": "node",
  "id": 2375880084,
  "lat": 44.9381654,
  "lon": 5.0917327,
  "tags": {
    "name": "Le Four Du Père Jules",
    "opening_hours": "Mo,Tu,Th,Fr,Sa 06:30-12:30,15:30-19:30; Su 07:00-12:30",
    "shop": "bakery"
  }
},
{
  "type": "node",
  "id": 2405870487,
  "lat": 45.0483492,
  "lon": 5.2949898,
  "tags": {
    "addr:city": "Saint-Thomas-en-Royans",
    "addr:housenumber": "140",
    "addr:postcode": "26190",
    "addr:street": "Route du Vercors",
    "name": "Jaco'Pain",
    "opening_hours": "Tu-Fr 07:00-20:00; Sa 07:00-19:00",
    "phone": "+33475475982",
    "shop": "bakery",
    "website": "https://www.jacopain.fr/"
  }
},
{
  "type": "node",
  "id": 2411198549,
  "lat": 44.7308917,
  "lon": 5.0176980,
  "tags": {
    "name": "Honorin",
    "opening_hours:signed": "no",
    "shop": "bakery"
  }
},
{
  "type": "node",
  "id": 2639143283,
  "lat": 44.8708091,
  "lon": 4.8756972,
  "tags": {
    "addr:housenumber": "115",
    "name": "Le fournil portois",
    "shop": "bakery",
    "source": "INSEE - 2021-01"
  }
},
{
  "type": "node",
  "id": 2675935240,
  "lat": 45.0351874,
  "lon": 5.0524884,
  "tags": {
    "name": "Au bout l'ange rit",
    "shop": "bakery",
    "website": "https://au-bout-lange-rit-boulangerie-bourg-de-peage.eatbu.com/?lang=fr"
  }
},
{
  "type": "node",
  "id": 2723415164,
  "lat": 44.7588990,
  "lon": 5.3625280,
  "tags": {
    "indoor_seating": "yes",
    "internet_access": "yes",
    "name": "Le Fournil de Sylvain",
    "opening_hours": "Mo-Sa 06:15-19:00; Su 06:15-13:30",
    "outdoor_seating": "yes",
    "shop": "bakery"
  }
},
{
  "type": "node",
  "id": 2916481096,
  "lat": 44.9167085,
  "lon": 4.8909113,
  "tags": {
    "name": "Le Fournil des Gamines",
    "shop": "bakery"
  }
},
{
  "type": "node",
  "id": 2917176110,
  "lat": 44.9732060,
  "lon": 5.0267901,
  "tags": {
    "addr:floor": "0",
    "addr:housenumber": "15",
    "addr:street": "Avenue Dauphiné-Provence",
    "check_date": "2026-07-06",
    "email": "contact@relaisdelapogne.fr",
    "level": "0",
    "name": "Le Relais de la Pogne",
    "opening_hours": "Tu-Fr 06:00-13:00, 15:00-19:30; Su 06:00-13:00",
    "payment:cash": "yes",
    "payment:coins": "yes",
    "payment:credit_cards": "yes",
    "phone": "+33 4 75 47 08 67",
    "ref:FR:SIRET": "41483088500011",
    "shop": "bakery",
    "website": "https://relaisdelapogne.fr/"
  }
},
{
  "type": "node",
  "id": 3046446465,
  "lat": 44.7620545,
  "lon": 4.9194306,
  "tags": {
    "shop": "bakery",
    "wheelchair": "yes"
  }
},
{
  "type": "node",
  "id": 3143509297,
  "lat": 44.9137443,
  "lon": 4.9094361,
  "tags": {
    "shop": "bakery"
  }
},
{
  "type": "node",
  "id": 3143525214,
  "lat": 44.9202688,
  "lon": 4.8856827,
  "tags": {
    "name": "La Tartine",
    "opening_hours": "Mo-Sa 06:30-19:00;Su off",
    "phone": "+33 4 75 44 13 51",
    "shop": "bakery"
  }
},
{
  "type": "node",
  "id": 3143535291,
  "lat": 44.9219638,
  "lon": 4.8861744,
  "tags": {
    "addr:housenumber": "168",
    "addr:street": "Avenue Victor Hugo",
    "name": "L'Atelier d'Aldo",
    "payment:cash": "yes",
    "payment:cheque": "yes",
    "payment:contactless": "yes",
    "payment:credit_cards": "yes",
    "payment:debit_cards": "yes",
    "phone": "+33475415633",
    "shop": "bakery",
    "website": "https://alpeyretadp.wixsite.com/latelierdaldovalence"
  }
},
{
  "type": "node",
  "id": 3157665121,
  "lat": 44.9376713,
  "lon": 4.8962238,
  "tags": {
    "addr:housenumber": "57",
    "addr:street": "Avenue Jean Jaurès",
    "internet_access": "wlan",
    "internet_access:fee": "no",
    "internet_access:operator": "Cigale",
    "internet_access:ssid": "Cigale",
    "name": "Autant de Pains",
    "phone": "+33 4 75 56 20 06",
    "shop": "bakery"
  }
},
{
  "type": "node",
  "id": 3214484685,
  "lat": 45.0152402,
  "lon": 4.9389155,
  "tags": {
    "description": "Artisan Boulanger",
    "shop": "bakery"
  }
},
{
  "type": "node",
  "id": 3883072776,
  "lat": 44.8996612,
  "lon": 5.0194737,
  "tags": {
    "name": "Boulangerie La Véore",
    "shop": "bakery"
  }
},
{
  "type": "node",
  "id": 3898843039,
  "lat": 44.8716350,
  "lon": 5.0216150,
  "tags": {
    "addr:street": "Place de la Mairie",
    "name": "Le Fournil de Montvendre",
    "shop": "bakery"
  }
},
{
  "type": "node",
  "id": 4058515694,
  "lat": 45.0184822,
  "lon": 5.2926794,
  "tags": {
    "check_date": "2024-02-28",
    "name": "La P'tite Boulange",
    "shop": "bakery"
  }
},
{
  "type": "node",
  "id": 4294689789,
  "lat": 44.9285026,
  "lon": 4.8919017,
  "tags": {
    "contact:city": "Valence",
    "contact:housenumber": "17",
    "contact:postcode": "26000",
    "contact:street": "Avenue Pierre Semard",
    "description": "Boulangerie-pâtisserie avec spécialités locales : Suisse, Pogne, Saint-Genix.",
    "name": "Maison Nivon",
    "note:opening_hours": "Ouvert le lundi les jours fériés.",
    "opening_hours": "Tu-Sa 06:00-19:30; Su 06:00-19:00",
    "phone": "+33 4 75 44 03 37",
    "ref:FR:SIRET": "43558066700010",
    "shop": "bakery",
    "website": "https://www.nivon.com/",
    "wheelchair": "yes"
  }
},
{
  "type": "node",
  "id": 4334102480,
  "lat": 44.7070997,
  "lon": 5.1332743,
  "tags": {
    "nudism": "yes",
    "shop": "bakery"
  }
},
{
  "type": "node",
  "id": 4335464226,
  "lat": 44.8330051,
  "lon": 4.9753172,
  "tags": {
    "name": "La Mie Meyran",
    "phone": "+33 4 75 59 31 62",
    "shop": "bakery"
  }
},
{
  "type": "node",
  "id": 4335481324,
  "lat": 44.8652925,
  "lon": 4.9408040,
  "tags": {
    "addr:housenumber": "29",
    "name": "Maison Crest",
    "opening_hours": "Mo-Sa 06:00-19:30",
    "phone": "+33 4 75 59 50 32",
    "shop": "bakery",
    "source": "Survey;Cadastre"
  }
},
{
  "type": "node",
  "id": 4450464517,
  "lat": 44.9695615,
  "lon": 4.9539694,
  "tags": {
    "name": "La Favorite",
    "shop": "bakery"
  }
},
{
  "type": "node",
  "id": 4523333063,
  "lat": 44.8756457,
  "lon": 4.8787980,
  "tags": {
    "name": "Le Fournil",
    "shop": "bakery"
  }
},
{
  "type": "node",
  "id": 4659827003,
  "lat": 44.7155843,
  "lon": 5.0575423,
  "tags": {
    "name": "Boulangerie - Pâtisserie du Village",
    "opening_hours": "Mo,Tu,Th,Fr 06:30-13:00,15:30-19:00; PH,Sa,Su 07:00-12:30",
    "shop": "bakery",
    "wheelchair": "yes"
  }
},
{
  "type": "node",
  "id": 4859582845,
  "lat": 44.9476012,
  "lon": 4.8979147,
  "tags": {
    "name": "La baguette du Cyrano",
    "shop": "bakery",
    "source": "cadastre-dgi-fr source : Direction Générale des Impôts - Cadastre. Mise à jour : 2011"
  }
},
{
  "type": "node",
  "id": 4863570017,
  "lat": 44.9229710,
  "lon": 4.9055554,
  "tags": {
    "addr:housenumber": "196",
    "addr:street": "Rue Faventines",
    "brand": "Autant de Pain",
    "check_date": "2024-02-12",
    "check_date:opening_hours": "2024-05-12",
    "chocolate": "yes",
    "contact:facebook": "https://www.facebook.com/Autant-De-Pains-Faventines-991606304294487/",
    "email": "adp.faventines@gmail.com",
    "level": "0",
    "name": "Autant De Pains Faventines",
    "opening_hours": "Mo-Sa 06:30-19:30; Su 06:30-19:00",
    "operator": "Autant De Pains",
    "pastry": "yes",
    "payment:cash": "yes",
    "payment:contactless": "yes",
    "payment:credit_cards": "yes",
    "phone": "+33 4 75 43 38 22",
    "shop": "bakery",
    "source": "cadastre-dgi-fr source : Direction Generale des Impots - Cadastre. Mise a jour : 2013",
    "wheelchair": "limited"
  }
},
{
  "type": "node",
  "id": 4863583985,
  "lat": 44.9122879,
  "lon": 4.8847538,
  "tags": {
    "addr:city": "Valence",
    "addr:housenumber": "389",
    "addr:postcode": "26000",
    "addr:street": "Av. Victor Hugo,",
    "breakfast": "yes",
    "contact:facebook": "https://fr-fr.facebook.com/pages/category/Bakery/Lartisan-1597053977289768/",
    "contact:phone": "+33 4 75 44 23 08",
    "cuisine": "sandwich",
    "description": "Boulangerie Patisserie",
    "indoor_seating": "yes",
    "name": "Maison Obringer",
    "opening_hours": "Mo-Fr 06:00-19:00; Sa-Su 07:00-19:00",
    "pastry": "yes",
    "payment:contactless": "yes",
    "payment:debit_cards": "yes",
    "payment:mastercard": "yes",
    "payment:visa": "yes",
    "shop": "bakery",
    "source": "cadastre-dgi-fr source : Direction Générale des Impôts - Cadastre. Mise à jour : 2011",
    "takeaway": "yes",
    "toilets:wheelchair": "yes",
    "wheelchair": "limited"
  }
},
{
  "type": "node",
  "id": 4863594837,
  "lat": 44.9453495,
  "lon": 4.9118237,
  "tags": {
    "check_date": "2025-08-22",
    "name": "Boulangerie-patisserie",
    "shop": "bakery",
    "source": "cadastre-dgi-fr source : Direction Générale des Impôts - Cadastre. Mise à jour : 2011"
  }
},
{
  "type": "node",
  "id": 4871669853,
  "lat": 44.7316398,
  "lon": 4.9234788,
  "tags": {
    "shop": "bakery"
  }
},
{
  "type": "node",
  "id": 4871669857,
  "lat": 44.7302253,
  "lon": 4.9210717,
  "tags": {
    "name": "La petite boulangerie",
    "opening_hours": "Fr 20:00-00:00 Sa 06:30-22:30 Su 06:30-12:30",
    "phone": "+33 9 73 61 85 06",
    "shop": "bakery"
  }
},
{
  "type": "node",
  "id": 4943663893,
  "lat": 44.9096026,
  "lon": 4.8782998,
  "tags": {
    "brand": "Marie Blachère",
    "brand:wikidata": "Q62082410",
    "brand:wikipedia": "fr:Marie Blachère",
    "check_date": "2024-03-15",
    "name": "Marie Blachère",
    "opening_hours": "Mo-Sa 06:30-19:30",
    "phone": "+33 4 75 80 91 06",
    "ref:FR:SIRET": "47845579302129",
    "shop": "bakery",
    "website": "https://boulangeries.marieblachere.com/fr/france-FR/4001/marie-blachere-valence-casino/details"
  }
},
{
  "type": "node",
  "id": 4943666965,
  "lat": 44.9330484,
  "lon": 4.8800640,
  "tags": {
    "addr:housenumber": "7",
    "addr:street": "Place Jean Jaurès",
    "shop": "bakery"
  }
},
{
  "type": "node",
  "id": 4990823327,
  "lat": 45.0168924,
  "lon": 5.2921926,
  "tags": {
    "mapillary": "1219703571807939",
    "name": "Aux pains de Saint-Jean",
    "shop": "bakery",
    "survey:date": "2021-01-06"
  }
},
{
  "type": "node",
  "id": 4995556221,
  "lat": 44.9481186,
  "lon": 4.8979206,
  "tags": {
    "name": "Le fournil de Vincent",
    "shop": "bakery"
  }
},
{
  "type": "node",
  "id": 5157017022,
  "lat": 44.7637468,
  "lon": 4.9135393,
  "tags": {
    "name": "Le petit mitron",
    "shop": "bakery"
  }
},
{
  "type": "node",
  "id": 5434689039,
  "lat": 44.7166859,
  "lon": 5.0590003,
  "tags": {
    "alt_name": "Osmose",
    "contact:facebook": "https://www.facebook.com/Painsdebeaufort/",
    "craft": "bakery",
    "name": "Pains de Beaufort",
    "opening_hours": "Tu-Sa 08:00-13:00, Tu-Fr 16:00-18:00",
    "organic": "only",
    "shop": "bakery",
    "website": "https://www.painsdebeaufort.com/"
  }
},
{
  "type": "node",
  "id": 5449186293,
  "lat": 44.7286625,
  "lon": 5.0186132,
  "tags": {
    "addr:city": "Crest",
    "addr:housenumber": "49",
    "addr:postcode": "26400",
    "addr:street": "Rue Émile Loubet",
    "name": "Mathéo Chastel - Fournil du Dauphiné",
    "opening_hours": "Tu-Fr 07:00-19:00; Sa 07:00-13:00",
    "organic": "only",
    "shop": "bakery",
    "website": "https://www.matheochastel.fr/"
  }
},
{
  "type": "node",
  "id": 5686887821,
  "lat": 44.5862893,
  "lon": 5.1344155,
  "tags": {
    "addr:housenumber": "15",
    "addr:postcode": "26460",
    "addr:street": "Rue de la Leve",
    "check_date:opening_hours": "2023-11-19",
    "name": "Le fournil",
    "opening_hours": "Tu-Sa 07:00-17:00; Su 07:00-12:00",
    "opening_hours:signed": "no",
    "phone": "+33 4 75 53 36 80",
    "shop": "bakery"
  }
},
{
  "type": "node",
  "id": 5728531239,
  "lat": 44.6967650,
  "lon": 5.1980689,
  "tags": {
    "addr:city": "Saillans",
    "addr:housenumber": "41",
    "addr:postcode": "26340",
    "addr:street": "Grande Rue",
    "check_date": "2026-05-19",
    "name": "RIPOPEE",
    "opening_hours": "Tu-Sa 07:00-12:30,16:00-19:00; Su 07:00-12:30",
    "phone": "+33 4 75 21 89 33",
    "shop": "bakery"
  }
},
{
  "type": "node",
  "id": 5777221701,
  "lat": 44.7534638,
  "lon": 5.3730326,
  "tags": {
    "addr:housenumber": "111",
    "addr:street": "Rue Camille Buffardel",
    "name": "Le pain des frangins",
    "opening_hours": "Fr-Tu 07:00-19:00",
    "organic": "yes",
    "shop": "bakery"
  }
},
{
  "type": "node",
  "id": 5828022458,
  "lat": 44.7997396,
  "lon": 4.9392289,
  "tags": {
    "addr:housenumber": "4",
    "addr:street": "Place de la Poste",
    "name": "Maison Droulez",
    "opening_hours": "Tu-Sa 06:30-19:00; Su 06:30-13:00",
    "shop": "bakery"
  }
},
{
  "type": "node",
  "id": 5851747197,
  "lat": 44.8996398,
  "lon": 4.8877836,
  "tags": {
    "name": "La Fournaise",
    "shop": "bakery"
  }
},
{
  "type": "node",
  "id": 5907077687,
  "lat": 44.9678298,
  "lon": 5.4147288,
  "tags": {
    "addr:housenumber": "162",
    "addr:street": "Avenue de la Terrasse",
    "check_date": "2025-11-12",
    "name": "Aux delices de Stéphi",
    "opening_hours": "Tu-Su 06:15-13:30,15:30-19:00",
    "operator": "Philippe, Jules, Raymond et Serge Devoldere",
    "phone": "+33 4 75 48 20 65",
    "ref:FR:SIRET": "49073518000047",
    "shop": "bakery",
    "start_date": "2015-06-19"
  }
},
{
  "type": "node",
  "id": 6007270455,
  "lat": 44.9282762,
  "lon": 4.8918843,
  "tags": {
    "name": "La Petite Valentine",
    "opening_hours": "Mo,Tu,Th-Sa 07:00-19:30; Su 07:00-19:00",
    "phone": "+33475440478",
    "shop": "bakery",
    "website": "https://www.lapetitevalentine.com/"
  }
},
{
  "type": "node",
  "id": 6285640314,
  "lat": 44.9407682,
  "lon": 4.8931667,
  "tags": {
    "name": "Le Moulin du Vieux Bourg",
    "shop": "bakery"
  }
},
{
  "type": "node",
  "id": 6326776449,
  "lat": 45.0439866,
  "lon": 5.0450427,
  "tags": {
    "addr:housenumber": "11",
    "addr:street": "Rue de Clérieux",
    "description": "boulangerie biologique, pains au levain",
    "name": "Aux poids et farines",
    "opening_hours": "Mo, We, Fr 14:00-19:00",
    "organic": "only",
    "phone": "+33 4 75 05 53 23",
    "shop": "bakery",
    "website": "https://www.auxpoidsetfarines.com",
    "wheelchair": "no"
  }
},
{
  "type": "node",
  "id": 6329201747,
  "lat": 44.9285828,
  "lon": 4.8975235,
  "tags": {
    "check_date:opening_hours": "2024-05-08",
    "contact:facebook": "https://fr-fr.facebook.com/pages/category/Product-Service/Boulangerie-P%C3%A2tisserie-Vallon-1724408251202465/",
    "name": "Boulangerie Pâtisserie Vallon",
    "opening_hours:signed": "no",
    "phone": "+33 4 75 43 33 30",
    "shop": "bakery"
  }
},
{
  "type": "node",
  "id": 6477628864,
  "lat": 44.9337468,
  "lon": 4.8909376,
  "tags": {
    "addr:housenumber": "13",
    "addr:street": "Grande Rue",
    "check_date": "2024-03-16",
    "indoor_seating": "no",
    "name": "Laurent Serre",
    "outdoor_seating": "no",
    "shop": "bakery",
    "takeaway": "only"
  }
},
{
  "type": "node",
  "id": 6527877930,
  "lat": 45.0459771,
  "lon": 5.0501710,
  "tags": {
    "addr:housenumber": "76",
    "addr:street": "Place Jean Jaurès",
    "brand": "La Mie Câline",
    "brand:wikidata": "Q3210704",
    "brand:wikipedia": "fr:La Mie câline",
    "name": "La Mie Câline",
    "opening_hours": "Mo-Su 6:00-20:00",
    "phone": "+33 4 75 45 85 94",
    "shop": "bakery",
    "website": "https://magasin.lamiecaline.com/magasin/romans/299"
  }
},
{
  "type": "node",
  "id": 6527985509,
  "lat": 45.0460034,
  "lon": 5.0508727,
  "tags": {
    "addr:housenumber": "64",
    "addr:street": "Place Jean Jaurès",
    "name": "Boulangerie Patisserie Bédouin",
    "phone": "+33 4 75 05 12 89",
    "shop": "bakery"
  }
},
{
  "type": "node",
  "id": 6528619190,
  "lat": 45.0460170,
  "lon": 5.0511443,
  "tags": {
    "addr:housenumber": "58",
    "addr:street": "Place Jean Jaurès",
    "name": "Pognes Mourier",
    "phone": "+33 4 75 02 79 91",
    "shop": "bakery"
  }
},
{
  "type": "node",
  "id": 6531458437,
  "lat": 45.0461391,
  "lon": 5.0530976,
  "tags": {
    "addr:housenumber": "1",
    "addr:street": "Avenue Victor Hugo",
    "name": "Pascalis",
    "opening_hours": "Mo off; Tu-Th 7:30-12:30,14:30-19:00; Fr-Sa 7:30-19:00; Su 8:00-12:00",
    "phone": "+33 4 75 02 10 73",
    "shop": "bakery",
    "website": "http://www.pascalis.com/"
  }
},
{
  "type": "node",
  "id": 6541715598,
  "lat": 44.6112184,
  "lon": 4.9366064,
  "tags": {
    "name": "Mille et un pain",
    "opening_hours": "Tu-Sa 06:30-12:30, 15:30-19:00, 09:00-18:00; Su 06:30-12:30",
    "shop": "bakery"
  }
},
{
  "type": "node",
  "id": 6615920992,
  "lat": 45.0174824,
  "lon": 5.2925342,
  "tags": {
    "check_date": "2024-02-28",
    "name": "Au pain de la vie",
    "shop": "bakery"
  }
},
{
  "type": "node",
  "id": 6898908406,
  "lat": 45.0314146,
  "lon": 5.0783069,
  "tags": {
    "addr:housenumber": "90G",
    "addr:street": "Rue du 19 Mars 1962",
    "name": "Boulangerie Bresnu",
    "ref:FR:SIRET": "79375131400022",
    "shop": "bakery",
    "source": "INSEE - 2021-03;survey"
  }
},
{
  "type": "node",
  "id": 7187350485,
  "lat": 45.0471099,
  "lon": 5.0702169,
  "tags": {
    "name": "Les délices de la Médina",
    "shop": "bakery"
  }
},
{
  "type": "node",
  "id": 7223489342,
  "lat": 45.0456675,
  "lon": 5.0471954,
  "tags": {
    "name": "La Nougatine",
    "shop": "bakery"
  }
},
{
  "type": "node",
  "id": 7269717085,
  "lat": 44.5530748,
  "lon": 4.8678717,
  "tags": {
    "contact:email": "boulangeriedelcourt@gmail.com",
    "contact:facebook": "https://www.facebook.com/BoulangerieDelcourt-26-108908201682498/",
    "contact:phone": "+33 4 75 98 95 40",
    "name": "Boulangerie Delcourt 26",
    "opening_hours": "Mo,Tu,Th-Sa 06:30-13:00,15:30-19:00",
    "pastry": "yes",
    "pastry_shop": "yes",
    "shop": "bakery",
    "survey:date": "2022-04-12",
    "wheelchair": "yes"
  }
},
{
  "type": "node",
  "id": 7359106856,
  "lat": 45.0487555,
  "lon": 5.0765430,
  "tags": {
    "name": "Au pain doré",
    "shop": "bakery"
  }
},
{
  "type": "node",
  "id": 7422927303,
  "lat": 44.9427715,
  "lon": 4.8598167,
  "tags": {
    "contact:facebook": "https://www.facebook.com/p/Boulangerie-Marius-Saint-P%C3%A9ray-61564882263777/",
    "email": "mariussaintperay@gmail.com",
    "name": "Boulangerie Marius",
    "phone": "+33 4 75 60 10 25",
    "ref:FR:SIRET": "92870440200017",
    "shop": "bakery"
  }
},
{
  "type": "node",
  "id": 7561817785,
  "lat": 44.9382977,
  "lon": 4.8648281,
  "tags": {
    "brand": "Brioche Dorée",
    "brand:wikidata": "Q2925606",
    "brand:wikipedia": "fr:Brioche Dorée",
    "contact:city": "Guilherand-Granges",
    "contact:housenumber": "1449",
    "contact:phone": "+33 4 75 41 89 67",
    "contact:postcode": "07500",
    "contact:street": "Avenue de la République",
    "name": "Brioche Dorée",
    "official_name": "Brioche Dorée Guilherand-Grange - C.cial Auchan",
    "opening_hours": "Mo-Sa 08:00-19:30",
    "ref:FR:SIRET": "44294224900024",
    "shop": "bakery",
    "website": "https://www.briochedoree.fr/restaurants/82-guilherand-grange-c.cial-auchan",
    "wheelchair": "yes"
  }
},
{
  "type": "node",
  "id": 7773736185,
  "lat": 44.9592201,
  "lon": 4.9361943,
  "tags": {
    "brand": "Marie Blachère",
    "brand:wikidata": "Q62082410",
    "name": "Marie Blachère",
    "opening_hours": "Mo-Sa 07:30-19:30",
    "phone": "+33 4 75 83 90 63",
    "ref:FR:SIRET": "48234097300130",
    "shop": "bakery",
    "website": "https://boulangeries.marieblachere.com/fr/france-FR/7003/marie-blachere-st-marcel-les-valence/details",
    "wheelchair": "yes"
  }
},
{
  "type": "node",
  "id": 7865532175,
  "lat": 44.8396820,
  "lon": 4.8908573,
  "tags": {
    "indoor_seating": "no",
    "name": "Caserne O 'pains",
    "opening_hours": "Mo,Tu,Th-Sa 07:00-19:00; We 07:00-12:30; Su 07:00-12:30; PH off",
    "outdoor_seating": "no",
    "payment:credit_cards": "yes",
    "payment:debit_cards": "yes",
    "shop": "bakery",
    "takeaway": "only",
    "wheelchair": "yes"
  }
},
{
  "type": "node",
  "id": 8146547092,
  "lat": 44.8848024,
  "lon": 4.8797007,
  "tags": {
    "brand": "Marie Blachère",
    "brand:wikidata": "Q62082410",
    "brand:wikipedia": "fr:Marie Blachère",
    "coffee": "yes",
    "name": "Marie Blachère",
    "opening_hours": "Mo-Sa 06:30-19:30",
    "outdoor_seating": "yes",
    "shop": "bakery"
  }
},
{
  "type": "node",
  "id": 8146547094,
  "lat": 44.8853792,
  "lon": 4.8798576,
  "tags": {
    "coffee": "yes",
    "name": "L'originale",
    "opening_hours": "Mo-We, Fr-Su 06:30-19:30",
    "outdoor_seating": "yes",
    "shop": "bakery",
    "was:name": "Le fournil de Laeti"
  }
},
{
  "type": "node",
  "id": 8265020859,
  "lat": 44.9297116,
  "lon": 5.0225839,
  "tags": {
    "check_date": "2023-10-10",
    "name": "Artisan Boulanger Eric Grandjean",
    "shop": "bakery"
  }
},
{
  "type": "node",
  "id": 8266470371,
  "lat": 44.9021705,
  "lon": 5.0090951,
  "tags": {
    "name": "Boulangerie Sophie Lebreuilly",
    "opening_hours": "Mo-Su,PH 06:30-20:00",
    "shop": "bakery"
  }
},
{
  "type": "node",
  "id": 8491804961,
  "lat": 45.0435782,
  "lon": 5.0300833,
  "tags": {
    "indoor_seating": "yes",
    "name": "Chez Marius",
    "outdoor_seating": "yes",
    "shop": "bakery"
  }
},
{
  "type": "node",
  "id": 8549852019,
  "lat": 45.0445437,
  "lon": 5.0488793,
  "tags": {
    "name": "Le fournil de Jaquemart",
    "shop": "bakery",
    "survey:date": "2021-03-22"
  }
},
{
  "type": "node",
  "id": 8589997809,
  "lat": 44.9614649,
  "lon": 4.8824604,
  "tags": {
    "addr:housenumber": "609",
    "addr:street": "Allée des Sapins",
    "brand": "Ange",
    "brand:wikidata": "Q98383422",
    "name": "Boulangerie Ange",
    "shop": "bakery"
  }
},
{
  "type": "node",
  "id": 8590066657,
  "lat": 44.9604034,
  "lon": 4.8890139,
  "tags": {
    "addr:street": "Montée du Long",
    "name": "Boulangerie Emile Bec",
    "shop": "bakery"
  }
},
{
  "type": "node",
  "id": 9280883216,
  "lat": 44.7289006,
  "lon": 5.0208012,
  "tags": {
    "addr:housenumber": "42",
    "addr:street": "Rue de l'Hôtel de Ville",
    "email": "contact@rouletaboule.fr",
    "name": "Roule Ta Boule",
    "opening_hours": "Th-Fr 10:00-13:00,15:00-19:00; Sa 8:30-13:00",
    "payment:cash": "yes",
    "payment:cheque": "yes",
    "payment:credit_cards": "yes",
    "payment:debit_cards": "yes",
    "phone": "+33651772988",
    "shop": "bakery",
    "website": "https://producteurs.souke.fr/rouletaboule"
  }
},
{
  "type": "node",
  "id": 9352466372,
  "lat": 44.9523652,
  "lon": 4.9292940,
  "tags": {
    "name": "Le Fournil des Couleures",
    "shop": "bakery"
  }
},
{
  "type": "node",
  "id": 9371665646,
  "lat": 44.9023424,
  "lon": 5.0078157,
  "tags": {
    "name": "Maison Colin",
    "shop": "bakery"
  }
},
{
  "type": "node",
  "id": 9396394529,
  "lat": 44.9682245,
  "lon": 4.8855618,
  "tags": {
    "shop": "bakery"
  }
},
{
  "type": "node",
  "id": 9757777817,
  "lat": 44.7284643,
  "lon": 5.0235775,
  "tags": {
    "addr:housenumber": "9",
    "addr:postcode": "26400",
    "addr:street": "Rue de la République",
    "name": "Boulangerie Fouraison",
    "opening_hours": "Mo-Sa 07:00-19:00",
    "shop": "bakery"
  }
},
{
  "type": "node",
  "id": 9859998026,
  "lat": 44.6026725,
  "lon": 5.0117109,
  "tags": {
    "pastry": "yes",
    "shop": "bakery"
  }
},
{
  "type": "node",
  "id": 9942472606,
  "lat": 45.0498088,
  "lon": 5.0406731,
  "tags": {
    "brand": "Marie Blachère",
    "brand:wikidata": "Q62082410",
    "name": "Marie Blachère",
    "shop": "bakery"
  }
},
{
  "type": "node",
  "id": 10024624529,
  "lat": 44.9322592,
  "lon": 4.8967645,
  "tags": {
    "shop": "bakery"
  }
},
{
  "type": "node",
  "id": 10096979140,
  "lat": 44.9229273,
  "lon": 4.9331384,
  "tags": {
    "contact:city": "Valence",
    "contact:housenumber": "457",
    "contact:phone": "+33 4 75 43 73 37",
    "contact:postcode": "26000",
    "contact:street": "Route de Chabeuil",
    "name": "Guillaume le Boulanger",
    "opening_hours": "Mo-Fr 07:00-17:30",
    "ref:FR:SIRET": "80829175100028",
    "shop": "bakery"
  }
},
{
  "type": "node",
  "id": 10152106606,
  "lat": 45.0309704,
  "lon": 5.0643363,
  "tags": {
    "shop": "bakery"
  }
},
{
  "type": "node",
  "id": 10156452703,
  "lat": 44.9722182,
  "lon": 4.9575451,
  "tags": {
    "name": "SebAu Pain",
    "opening_hours": "Mo-Sa 06:30-14:00,16:00-19:00",
    "phone": "+33 4 75 58 71 37",
    "ref:FR:SIRET": "91185329900012",
    "shop": "bakery"
  }
},
{
  "type": "node",
  "id": 10156452704,
  "lat": 44.9724458,
  "lon": 4.9557295,
  "tags": {
    "brand": "Ronde des Pains",
    "brand:wikidata": "Q3441707",
    "name": "Ronde des Pains",
    "operator": "Nicolex",
    "phone": "+33 4 75 58 71 23",
    "shop": "bakery"
  }
},
{
  "type": "node",
  "id": 10242901565,
  "lat": 44.9328309,
  "lon": 4.8933135,
  "tags": {
    "email": "valence@pascalis.com",
    "name": "Maison Pascalis",
    "opening_hours": "Mo-Sa 09:00-19:00",
    "phone": "+33 6 61 22 37 27",
    "ref:FR:SIRET": "91488595900017",
    "shop": "bakery",
    "website": "https://www.maison-pascalis.com/boutique-valence/"
  }
},
{
  "type": "node",
  "id": 10672616966,
  "lat": 44.9389404,
  "lon": 4.8638002,
  "tags": {
    "brand": "Marie Blachère",
    "brand:wikidata": "Q62082410",
    "name": "Marie Blachère",
    "opening_hours": "Mo-Sa 06:30-19:30",
    "phone": "+33 4 75 79 13 49",
    "ref:FR:SIRET": "47845579304976",
    "shop": "bakery",
    "website": "https://boulangeries.marieblachere.com/fr/france-FR/5479/marie-blachere-guilherand-granges/details",
    "wheelchair": "yes"
  }
},
{
  "type": "node",
  "id": 10701983780,
  "lat": 44.8369594,
  "lon": 4.8957570,
  "tags": {
    "indoor_seating": "no",
    "name": "Au P'tit Régal",
    "opening_hours": "Tu-Su 06:30-13:00; Mo,PH off, Tu-Sa 15:30-19:00",
    "outdoor_seating": "no",
    "payment:credit_cards": "yes",
    "payment:debit_cards": "yes",
    "shop": "bakery",
    "source": "survey",
    "takeaway": "only",
    "wheelchair": "yes"
  }
},
{
  "type": "node",
  "id": 10890447088,
  "lat": 44.6268776,
  "lon": 4.9708990,
  "tags": {
    "shop": "bakery"
  }
},
{
  "type": "node",
  "id": 10893603459,
  "lat": 44.7332823,
  "lon": 5.0113119,
  "tags": {
    "name": "Chastang",
    "shop": "bakery"
  }
},
{
  "type": "node",
  "id": 10994966916,
  "lat": 44.9422472,
  "lon": 4.9194326,
  "tags": {
    "brand": "Marie Blachère",
    "brand:wikidata": "Q62082410",
    "name": "Marie Blachère",
    "opening_hours": "Mo-Sa 07:00-19:30",
    "phone": "+33 4 75 80 04 80",
    "ref:FR:SIRET": "47845579302400",
    "shop": "bakery",
    "website": "https://boulangeries.marieblachere.com/fr/france-FR/4503/marie-blachere-valence-mercialys/details",
    "wheelchair": "yes"
  }
},
{
  "type": "node",
  "id": 11187842395,
  "lat": 44.8913962,
  "lon": 4.8799438,
  "tags": {
    "name": "Aux Pains Gourmands",
    "shop": "bakery"
  }
},
{
  "type": "node",
  "id": 11582589548,
  "lat": 44.9591002,
  "lon": 4.8845448,
  "tags": {
    "addr": "165 rue des Chabanneries",
    "addr:city": "Bourg-lès-Valence",
    "addr:housenumber": "165",
    "addr:postcode": "26500",
    "addr:street": "Rue des Chabanneries",
    "alt_name": "Valence (Bourg-lès-Valence)",
    "brand": "Boulangerie Feuillette",
    "brand:wikidata": "Q136205449",
    "cuisine": "sandwich",
    "email": "valence@feuillette.fr",
    "indoor_seating": "yes",
    "name": "Boulangerie Feuillette",
    "opening_hours": "Mo-Su 07:00-20:00",
    "outdoor_seating": "yes",
    "phone": "+33 4 75 78 92 33",
    "ref:FR:Feuillette:extranet": "55",
    "ref:FR:Feuillette:id": "4681",
    "shop": "bakery",
    "start_date": "2022-11-15",
    "takeaway": "yes",
    "wheelchair": "limited"
  }
},
{
  "type": "node",
  "id": 11989921650,
  "lat": 44.7771423,
  "lon": 5.1430328,
  "tags": {
    "addr:city": "Beaufort-sur-Gervanne",
    "addr:housenumber": "9",
    "addr:postcode": "26400",
    "addr:street": "Rue Du Temple",
    "name": "Boulangerie Miche & Baguette",
    "opening_hours": "We-Mo 06:30-13:00; Oct-Mar Mon off",
    "payment:coins": "yes",
    "payment:credit_cards": "yes",
    "payment:debit_cards": "yes",
    "payment:maestro": "yes",
    "payment:notes": "yes",
    "phone": "+33769501018",
    "shop": "bakery"
  }
},
{
  "type": "node",
  "id": 12113287283,
  "lat": 44.9676786,
  "lon": 5.4160877,
  "tags": {
    "addr:housenumber": "54",
    "addr:street": "Avenue de la Terrasse",
    "name": "Le petit mitron",
    "opening_hours": "Mo-Sa 07:00-12:30, 16:00-19:00; Su 07:00-12:30",
    "shop": "bakery",
    "website": "lepetitmitron.fr"
  }
},
{
  "type": "node",
  "id": 12192212146,
  "lat": 44.9344761,
  "lon": 4.8775067,
  "tags": {
    "name": "Pains et Délices",
    "opening_hours": "Mo,Tu,Th-Sa 05:30-19:30; Su 05:30-18:30",
    "ref:FR:SIRET": "75318902600010",
    "shop": "bakery"
  }
},
{
  "type": "node",
  "id": 12245938282,
  "lat": 44.8921148,
  "lon": 4.8506972,
  "tags": {
    "contact:city": "Soyons",
    "contact:email": "cotteetfils@gmail.com",
    "contact:facebook": "https://www.facebook.com/p/Boulangerie-Pâtisserie-Cotte-et-fils-100063679446759/",
    "contact:housenumber": "295",
    "contact:phone": "+33 4 75 61 08 55",
    "contact:postcode": "07130",
    "contact:street": "Avenue des Frères Montgolfier",
    "name": "Cotte et fils",
    "opening_hours": "Tu-Sa 06:00-19:00; Su 06:00-18:00",
    "ref:FR:SIRET": "88915337500015",
    "shop": "bakery"
  }
},
{
  "type": "node",
  "id": 12281510982,
  "lat": 44.7277759,
  "lon": 5.0217430,
  "tags": {
    "addr:city": "Crest",
    "addr:housenumber": "11",
    "addr:postcode": "26400",
    "addr:street": "Rue Maurice Long",
    "check_date": "2026-06-02",
    "name": "Pâtisserie du donjon",
    "opening_hours": "Tu-Sa 07:00-12:30,14:30-19:00",
    "phone": "+33 4 75 25 47 34",
    "ref:FR:SIRET": "85139005400019",
    "shop": "bakery",
    "website": "https://www.patisserie-cochet.com/"
  }
},
{
  "type": "node",
  "id": 12373918221,
  "lat": 44.8862269,
  "lon": 4.8802495,
  "tags": {
    "brand": "Marie Blachère",
    "brand:wikidata": "Q62082410",
    "name": "Marie Blachère",
    "shop": "bakery"
  }
},
{
  "type": "node",
  "id": 12486437025,
  "lat": 44.9031579,
  "lon": 4.8788519,
  "tags": {
    "contact:city": "Valence",
    "contact:housenumber": "1",
    "contact:postcode": "26000",
    "contact:street": "Rue de Chantecouriol",
    "name": "Maison Nivon",
    "opening_hours": "Mo-Su 07:00-19:00",
    "phone": "+33 4 75 44 03 37",
    "ref:FR:SIRET": "43558066700028",
    "shop": "bakery",
    "website": "https://nivon.com/",
    "wheelchair": "yes"
  }
},
{
  "type": "node",
  "id": 12778510628,
  "lat": 44.9579793,
  "lon": 4.8892387,
  "tags": {
    "addr:housenumber": "160",
    "addr:street": "Avenue de Lyon",
    "cuisine": "pizza;salad;sandwich",
    "indoor_seating": "yes",
    "level": "0",
    "name": "Addiction",
    "opening_hours": "Mo-Su 6:30-19:30",
    "outdoor_seating": "yes",
    "shop": "bakery",
    "takeaway": "yes"
  }
},
{
  "type": "node",
  "id": 13033841473,
  "lat": 44.9519931,
  "lon": 4.8874337,
  "tags": {
    "name": "Artisan Boulanger Patissier L&V Moins",
    "ref:FR:SIRET": "75344804200014",
    "shop": "bakery",
    "source": "INSEE",
    "start_date": "2012-09-10"
  }
},
{
  "type": "node",
  "id": 13054293675,
  "lat": 44.9587234,
  "lon": 4.9067479,
  "tags": {
    "addr:street": "Passage Marcel Paul",
    "name": "Le Fournil de Vincent",
    "opening_hours": "Mo-Sa 06:30–12:45 15:30–19:00 Su 06:30–12:30",
    "operator": "Vincent Jullien",
    "phone": "+33 4 75 83 96 85",
    "ref:FR:SIRET": "50132006300024",
    "shop": "bakery",
    "source": "INSEE",
    "start_date": "2007-12-10"
  }
},
{
  "type": "node",
  "id": 13094065638,
  "lat": 44.7285732,
  "lon": 5.0215390,
  "tags": {
    "check_date": "2025-08-24",
    "indoor_seating": "no",
    "name": "Chastang",
    "outdoor_seating": "no",
    "payment:cash": "yes",
    "payment:credit_cards": "yes",
    "payment:debit_cards": "yes",
    "shop": "bakery",
    "takeaway": "only"
  }
},
{
  "type": "node",
  "id": 13140891677,
  "lat": 44.9436825,
  "lon": 4.8563961,
  "tags": {
    "brand": "Marie Blachère",
    "brand:wikidata": "Q62082410",
    "name": "Marie Blachère",
    "opening_hours": "Mo-Sa 06:30-19:30",
    "phone": "+33 4 75 80 15 34",
    "ref:FR:SIRET": "47845579303572",
    "shop": "bakery",
    "website": "https://boulangeries.marieblachere.com/fr/france-FR/5353/marie-blachere-st-peray/details",
    "wheelchair": "yes"
  }
},
{
  "type": "node",
  "id": 13288545841,
  "lat": 44.9302168,
  "lon": 4.8914917,
  "tags": {
    "brand": "La Mie Câline",
    "brand:wikidata": "Q3210704",
    "name": "La Mie Câline",
    "opening_hours": "Mo-Fr 06:30-19:30; Sa 07:00-19:30; Su 07:00-19:00",
    "phone": "+33 4 75 60 30 11",
    "ref:FR:SIRET": "80477931200011",
    "shop": "bakery",
    "website": "https://www.lamiecaline.com/boutiques/valence/",
    "wheelchair": "yes"
  }
},
{
  "type": "node",
  "id": 13519720348,
  "lat": 45.0450308,
  "lon": 5.0494613,
  "tags": {
    "check_date": "2026-05-16",
    "name": "Boulangerie Deux Mains",
    "opening_hours": "Mo,Su off; Tu-Sa 08:00-19:00",
    "phone": "+33 4 27 43 09 56",
    "shop": "bakery",
    "website": "https://boulangeriedeuxmains.fr/"
  }
},
{
  "type": "node",
  "id": 13584238957,
  "lat": 44.9010142,
  "lon": 4.9564043,
  "tags": {
    "addr:city": "Malissard",
    "addr:housenumber": "3",
    "addr:postcode": "26120",
    "addr:street": "Avenue du Vercors",
    "name": "Boulangerie Souchon",
    "opening_hours": "Mo-Tu ,Th-Sa 06:00–13:30,15:30–19:00; Su 06:30-13:00",
    "payment:cash": "yes",
    "payment:contactless": "yes",
    "payment:credit_cards": "yes",
    "phone": "+33 4 75 85 45 80",
    "shop": "bakery"
  }
},
{
  "type": "node",
  "id": 13611830804,
  "lat": 44.7050581,
  "lon": 5.2587393,
  "tags": {
    "name": "Le grand barry",
    "opening_hours": "Tu-Sa 06:30-14:00, 16:00-19:30; Mo 00:00-24:00; Su 07:00-16:30",
    "shop": "bakery"
  }
},
{
  "type": "node",
  "id": 13663489405,
  "lat": 44.5866037,
  "lon": 5.1354819,
  "tags": {
    "addr:housenumber": "11",
    "addr:street": "Place de la Lève",
    "check_date": "2026-03-19",
    "name": "La Mie Temps",
    "phone": "+33 4 26 51 27 38",
    "ref:FR:SIRET": "97801847100018",
    "shop": "bakery",
    "start_date": "2023-07-24"
  }
},
{
  "type": "node",
  "id": 13670262090,
  "lat": 44.6102373,
  "lon": 4.9357673,
  "tags": {
    "addr:street": "Boulevard de Provence",
    "name": "Boulangerie Pâtisserie Claude Cherfils",
    "opening_hours": "Mo, Th-Sa 06:30-12:30, 15:00-19:00; Su 06:30-12:30",
    "phone": "+33 4 75 90 15 45",
    "shop": "bakery"
  }
}

  ]
}
